[
  {
    "id": "er-001",
    "nom": "La Taberna",
    "localitzacio": "Carrer del Llobregat, 4B, Local 11, 08223 Terrassa, Barcelona",
    "lat": 41.5634,
    "lng": 2.0088,
    "data": "31/01/2026",
    "dificultat": "★★★★",
    "decoracio": 5,
    "gameMaster": 5,
    "proves": 5,
    "puntuacio": 5,
    "comentaris": "",
    "participants": "Cristina Ari Xamo Sergi",
    "tematica1": "Aventures",
    "tematica2": "Història",
    "preu": "consultar web",
    "web": "https://www.odiseaescape.com"
  },
  {
    "id": "er-002",
    "nom": "Exodus",
    "localitzacio": "Passatge Toledo, 6-8, 08014 Barcelona",
    "lat": 41.3733,
    "lng": 2.1428,
    "data": "29/11/2025",
    "dificultat": "★★★★",
    "decoracio": 5,
    "gameMaster": 4.5,
    "proves": 5,
    "puntuacio": 4.8,
    "comentaris": "",
    "participants": "Cristina Ari Xamo Sergi",
    "tematica1": "SciFi",
    "tematica2": "Apocalipsis",
    "preu": "des de 30€/p",
    "web": "https://www.elementsescaperoom.com"
  },
  {
    "id": "er-003",
    "nom": "La iniciativa",
    "localitzacio": "Carrer Sant Josep de Calassanç, 125, 08402 Granollers, Barcelona",
    "lat": 41.607,
    "lng": 2.287,
    "data": "",
    "dificultat": "★★★★",
    "decoracio": 4.5,
    "gameMaster": 5,
    "proves": 4.5,
    "puntuacio": 4.7,
    "comentaris": "Judith TOP Game Master",
    "participants": "Cristina Ari Xamo Sergi",
    "tematica1": "Misteri",
    "tematica2": "Aventures",
    "preu": "des de 20€/p",
    "web": "https://lainiciativa.es"
  },
  {
    "id": "er-004",
    "nom": "Bajo cero",
    "localitzacio": "Carrer de Casp, 9, 08204 Sabadell",
    "lat": 41.5482,
    "lng": 2.107,
    "data": "22/11/2025",
    "dificultat": "★★★★",
    "decoracio": 4.5,
    "gameMaster": 4,
    "proves": 4.5,
    "puntuacio": 4.3,
    "comentaris": "",
    "participants": "Cristina Ari Xamo Sergi",
    "tematica1": "Aventures",
    "tematica2": "Terror",
    "preu": "des de 25€/p",
    "web": "https://www.elementsescaperoom.com"
  },
  {
    "id": "er-005",
    "nom": "Troya",
    "localitzacio": "Passeig de Santa Coloma, 106, 08030 Barcelona",
    "lat": 41.4292,
    "lng": 2.1901,
    "data": "11/10/2025",
    "dificultat": "★★★★",
    "decoracio": 5,
    "gameMaster": 3.5,
    "proves": 4,
    "puntuacio": 4.2,
    "comentaris": "",
    "participants": "Josep Xamo Sergi",
    "tematica1": "Aventures",
    "tematica2": "Mitologia",
    "preu": "des de 20€/p",
    "web": "https://neverlandescape.com"
  },
  {
    "id": "er-006",
    "nom": "Seven",
    "localitzacio": "Carrer d'Aragó, 40, Les Franqueses del Vallès, Barcelona",
    "lat": 41.6333,
    "lng": 2.3,
    "data": "13/06/2026",
    "dificultat": "★★",
    "decoracio": 3.5,
    "gameMaster": 5,
    "proves": 3,
    "puntuacio": 3.8,
    "comentaris": "Patricia TOP Game Master",
    "participants": "Cristina Ari Xamo Sergi",
    "tematica1": "Crim",
    "tematica2": "Misteri",
    "preu": "des de 20€/p",
    "web": "https://quimeraescape.com"
  },
  {
    "id": "er-007",
    "nom": "Siro 3.0",
    "localitzacio": "Ronda Mossèn Jacint Verdaguer, 69, 08304 Mataró, Barcelona",
    "lat": 41.5382,
    "lng": 2.4445,
    "data": "07/01/2026",
    "dificultat": "★★★★",
    "decoracio": 3,
    "gameMaster": 3.5,
    "proves": 3,
    "puntuacio": 3.2,
    "comentaris": "Game Master interactiu",
    "participants": "Cristina Ari Xamo Sergi",
    "tematica1": "SciFi",
    "tematica2": "Acció",
    "preu": "des de 25€/p",
    "web": "https://mataro.cubickroomescape.es"
  },
  {
    "id": "er-008",
    "nom": "La Mansión Odisea",
    "localitzacio": "Carrer de Volta, 233, 08224 Terrassa, Barcelona",
    "lat": 41.5608,
    "lng": 2.0082,
    "data": "",
    "dificultat": "★★★",
    "decoracio": 2,
    "gameMaster": 1,
    "proves": 1,
    "puntuacio": 1.3,
    "comentaris": "Era tot molt vell",
    "participants": "Laura Marc Xamo Sergi",
    "tematica1": "Misteri",
    "tematica2": "Aventures",
    "preu": "des de 14€/p",
    "web": "https://www.odiseaescape.com"
  },
  {
    "id": "er-009",
    "nom": "Origen",
    "localitzacio": "Carrer de Llull, 256, 08019 Barcelona",
    "lat": 41.403,
    "lng": 2.205,
    "data": "01/02/2025",
    "dificultat": "",
    "decoracio": null,
    "gameMaster": null,
    "proves": null,
    "puntuacio": null,
    "comentaris": "",
    "participants": "Cristina Josep Xamo Sergi",
    "tematica1": "SciFi",
    "tematica2": "Aventures",
    "preu": "des de 22€/p",
    "web": "https://playescaperoom.es"
  },
  {
    "id": "er-010",
    "nom": "Scubick-Doo",
    "localitzacio": "Carrer de la Cooperativa, 77, Local 2, 08302 Mataró, Barcelona",
    "lat": 41.5383,
    "lng": 2.4442,
    "data": "12/04/2026",
    "dificultat": "",
    "decoracio": null,
    "gameMaster": null,
    "proves": null,
    "puntuacio": null,
    "comentaris": "",
    "participants": "Cristina Ari Xamo Sergi",
    "tematica1": "Aventures",
    "tematica2": "Misteri",
    "preu": "des de 25€/p",
    "web": "https://mataro.cubickroomescape.es"
  },
  {
    "id": "er-011",
    "nom": "La entrevista",
    "localitzacio": "Carrer de la Cooperativa, 77, Local 1, 08302 Mataró, Barcelona",
    "lat": 41.5382,
    "lng": 2.444,
    "data": "24/04/2026",
    "dificultat": "",
    "decoracio": null,
    "gameMaster": null,
    "proves": null,
    "puntuacio": null,
    "comentaris": "",
    "participants": "Cristina Ari Xamo Sergi",
    "tematica1": "Tensió",
    "tematica2": "Misteri",
    "preu": "des de 25€/p",
    "web": "https://mataro.cubickroomescape.es"
  },
  {
    "id": "er-012",
    "nom": "Awaken",
    "localitzacio": "Carrer Alcalá de Guadaira, 20, 08020 Barcelona",
    "lat": 41.408,
    "lng": 2.202,
    "data": "",
    "dificultat": "",
    "decoracio": null,
    "gameMaster": null,
    "proves": null,
    "puntuacio": null,
    "comentaris": "",
    "participants": "",
    "tematica1": "Terror",
    "tematica2": "Misteri",
    "preu": "des de 30€/p",
    "web": "https://www.reddopamine.com"
  },
  {
    "id": "er-013",
    "nom": "Bajo 2ª",
    "localitzacio": "Carretera de la Bordeta, 62-68, 08014 Barcelona",
    "lat": 41.374,
    "lng": 2.138,
    "data": "",
    "dificultat": "",
    "decoracio": null,
    "gameMaster": null,
    "proves": null,
    "puntuacio": null,
    "comentaris": "",
    "participants": "",
    "tematica1": "Terror",
    "tematica2": "Tensió",
    "preu": "des de 14€/p",
    "web": "https://bajosegunda.com"
  },
  {
    "id": "er-014",
    "nom": "Base secreta - Código rojo",
    "localitzacio": "Carrer de Nicolau Talló, 108, 08224 Terrassa, Barcelona",
    "lat": 41.562,
    "lng": 2.0105,
    "data": "",
    "dificultat": "",
    "decoracio": null,
    "gameMaster": null,
    "proves": null,
    "puntuacio": null,
    "comentaris": "",
    "participants": "",
    "tematica1": "Acció",
    "tematica2": "Tensió",
    "preu": "des de 15€/p",
    "web": "https://thecityescaperoom.com"
  },
  {
    "id": "er-015",
    "nom": "Blasfemia",
    "localitzacio": "Carrer del Padró, 27, 08272 Sant Fruitós de Bages, Barcelona",
    "lat": 41.738,
    "lng": 1.872,
    "data": "",
    "dificultat": "",
    "decoracio": null,
    "gameMaster": null,
    "proves": null,
    "puntuacio": null,
    "comentaris": "",
    "participants": "",
    "tematica1": "Terror",
    "tematica2": "Misteri",
    "preu": "25€/p",
    "web": "https://cindyescapebox.com"
  },
  {
    "id": "er-016",
    "nom": "Casino Royal",
    "localitzacio": "Carrer Sant Antoni Maria Claret, 258, Local, 08041 Barcelona",
    "lat": 41.4186,
    "lng": 2.1779,
    "data": "",
    "dificultat": "",
    "decoracio": null,
    "gameMaster": null,
    "proves": null,
    "puntuacio": null,
    "comentaris": "",
    "participants": "Cristina Ari Xamo Sergi",
    "tematica1": "Crim",
    "tematica2": "Acció",
    "preu": "des de 18€/p",
    "web": "https://www.xcaperoombcn.com"
  },
  {
    "id": "er-017",
    "nom": "Diamante de almas",
    "localitzacio": "Carrer Can Castells, 43, 08110 Montcada i Reixac, Barcelona",
    "lat": 41.483,
    "lng": 2.188,
    "data": "",
    "dificultat": "",
    "decoracio": null,
    "gameMaster": null,
    "proves": null,
    "puntuacio": null,
    "comentaris": "",
    "participants": "",
    "tematica1": "Crim",
    "tematica2": "Misteri",
    "preu": "des de 13€/p",
    "web": "https://www.elementsescaperoom.com"
  },
  {
    "id": "er-018",
    "nom": "El exorcista",
    "localitzacio": "Carrer de Virgili, 26, 08030 Barcelona",
    "lat": 41.43,
    "lng": 2.189,
    "data": "",
    "dificultat": "",
    "decoracio": null,
    "gameMaster": null,
    "proves": null,
    "puntuacio": null,
    "comentaris": "",
    "participants": "",
    "tematica1": "Terror",
    "tematica2": "Misteri",
    "preu": "",
    "web": "https://terrorstories.com/barcelona"
  },
  {
    "id": "er-019",
    "nom": "El invernadero",
    "localitzacio": "Carrer de Joan Riera, 32, 08042 Barcelona",
    "lat": 41.4407,
    "lng": 2.1757,
    "data": "20/09/2025",
    "dificultat": "",
    "decoracio": null,
    "gameMaster": null,
    "proves": null,
    "puntuacio": null,
    "comentaris": "",
    "participants": "",
    "tematica1": "Terror",
    "tematica2": "Misteri",
    "preu": "des de 22€/p",
    "web": "https://residentriddle.com"
  },
  {
    "id": "er-020",
    "nom": "Evermore",
    "localitzacio": "Carrer de Cervantes, 8, 08221 Terrassa, Barcelona",
    "lat": 41.559,
    "lng": 2.0072,
    "data": "",
    "dificultat": "",
    "decoracio": null,
    "gameMaster": null,
    "proves": null,
    "puntuacio": null,
    "comentaris": "",
    "participants": "",
    "tematica1": "SciFi",
    "tematica2": "Aventures",
    "preu": "des de 23€/p",
    "web": "https://www.odiseaescape.com"
  },
  {
    "id": "er-021",
    "nom": "Fugitivos",
    "localitzacio": "Passatge Posoltega, 11, 08030 Barcelona",
    "lat": 41.435,
    "lng": 2.195,
    "data": "",
    "dificultat": "",
    "decoracio": null,
    "gameMaster": null,
    "proves": null,
    "puntuacio": null,
    "comentaris": "",
    "participants": "",
    "tematica1": "Acció",
    "tematica2": "Aventures",
    "preu": "des de 22€/p",
    "web": "https://fugitivosroomescape.com"
  },
  {
    "id": "er-022",
    "nom": "Katrina",
    "localitzacio": "Carrer de la Serra del Montsec, 22, 08950 Esplugues de Llobregat, Barcelona",
    "lat": 41.377,
    "lng": 2.088,
    "data": "02/05/2026",
    "dificultat": "★★★★★",
    "decoracio": 5,
    "gameMaster": 5,
    "proves": 5,
    "puntuacio": 5,
    "comentaris": "",
    "participants": "Cristina Ari Xamo Sergi",
    "tematica1": "Terror",
    "tematica2": "Misteri",
    "preu": "des de 35€/p",
    "web": "https://www.elementsescaperoom.com"
  },
  {
    "id": "er-023",
    "nom": "La casa",
    "localitzacio": "Olvan, 08617 Berga, Barcelona",
    "lat": 42.003,
    "lng": 1.856,
    "data": "07/03/2026",
    "dificultat": "★★★★",
    "decoracio": 4.5,
    "gameMaster": 5,
    "proves": 4.5,
    "puntuacio": 4.7,
    "comentaris": "",
    "participants": "Laura Marc Xamo Sergi",
    "tematica1": "Terror",
    "tematica2": "Fantasia",
    "preu": "des de 17€/p",
    "web": ""
  },
  {
    "id": "er-024",
    "nom": "La isla de las muñecas",
    "localitzacio": "Carrer del Padró, 27, 08272 Sant Fruitós de Bages, Barcelona",
    "lat": 41.7382,
    "lng": 1.8722,
    "data": "",
    "dificultat": "",
    "decoracio": null,
    "gameMaster": null,
    "proves": null,
    "puntuacio": null,
    "comentaris": "",
    "participants": "",
    "tematica1": "Terror",
    "tematica2": "Misteri",
    "preu": "25€/p",
    "web": "https://cindyescapebox.com"
  },
  {
    "id": "er-025",
    "nom": "Lightshift turno de noche",
    "localitzacio": "Carrer de Casp, 8, 08204 Sabadell",
    "lat": 41.5478,
    "lng": 2.1066,
    "data": "",
    "dificultat": "",
    "decoracio": null,
    "gameMaster": null,
    "proves": null,
    "puntuacio": null,
    "comentaris": "",
    "participants": "",
    "tematica1": "Terror",
    "tematica2": "Tensió",
    "preu": "des de 25€/p",
    "web": "https://www.elementsescaperoom.com"
  },
  {
    "id": "er-026",
    "nom": "Los mundos de Alicia",
    "localitzacio": "Passeig de la Muntanya, 112, 08402 Granollers, Barcelona",
    "lat": 41.6075,
    "lng": 2.2864,
    "data": "",
    "dificultat": "",
    "decoracio": null,
    "gameMaster": null,
    "proves": null,
    "puntuacio": null,
    "comentaris": "",
    "participants": "Cristina Ari Xamo Sergi",
    "tematica1": "Aventures",
    "tematica2": "Fantasia",
    "preu": "des de 22€/p",
    "web": "https://www.keyplay.es"
  },
  {
    "id": "er-027",
    "nom": "Malum",
    "localitzacio": "Carretera del Mig, 92, 08907 L'Hospitalet de Llobregat, Barcelona",
    "lat": 41.348,
    "lng": 2.107,
    "data": "",
    "dificultat": "",
    "decoracio": null,
    "gameMaster": null,
    "proves": null,
    "puntuacio": null,
    "comentaris": "",
    "participants": "",
    "tematica1": "Terror",
    "tematica2": "Aventures",
    "preu": "des de 22€/p",
    "web": "https://malumescaperoom.com"
  },
  {
    "id": "er-028",
    "nom": "Organum",
    "localitzacio": "Carrer del Guadalhorce, 5, 08223 Terrassa, Barcelona",
    "lat": 41.5608,
    "lng": 2.0095,
    "data": "",
    "dificultat": "",
    "decoracio": null,
    "gameMaster": null,
    "proves": null,
    "puntuacio": null,
    "comentaris": "",
    "participants": "Cristina Ari Xamo",
    "tematica1": "Tensió",
    "tematica2": "Crim",
    "preu": "des de 21€/p",
    "web": "https://rowkaescaperoom.com"
  },
  {
    "id": "er-029",
    "nom": "Outline",
    "localitzacio": "Avinguda del Parc de Can Mercader, 5, 08940 Cornellà de Llobregat, Barcelona",
    "lat": 41.353,
    "lng": 2.083,
    "data": "",
    "dificultat": "",
    "decoracio": null,
    "gameMaster": null,
    "proves": null,
    "puntuacio": null,
    "comentaris": "",
    "participants": "Cristina Ari Xamo Sergi",
    "tematica1": "Terror",
    "tematica2": "Misteri",
    "preu": "des de 30€/p",
    "web": "https://outlineescaperoom.es"
  },
  {
    "id": "er-030",
    "nom": "Randall's party",
    "localitzacio": "Carrer de Joan Riera, 32, 08042 Barcelona",
    "lat": 41.4407,
    "lng": 2.1757,
    "data": "",
    "dificultat": "",
    "decoracio": null,
    "gameMaster": null,
    "proves": null,
    "puntuacio": null,
    "comentaris": "",
    "participants": "Laura Marc Xamo Sergi",
    "tematica1": "Terror",
    "tematica2": "Comèdia",
    "preu": "des de 25€/p",
    "web": "https://residentriddle.com"
  },
  {
    "id": "er-031",
    "nom": "La reina roja",
    "localitzacio": "Carrer de Casp, 8, 08204 Sabadell",
    "lat": 41.548,
    "lng": 2.1068,
    "data": "08/11/2025",
    "dificultat": "",
    "decoracio": null,
    "gameMaster": null,
    "proves": null,
    "puntuacio": null,
    "comentaris": "",
    "participants": "Cristina Ari Xamo Sergi",
    "tematica1": "Aventures",
    "tematica2": "Mitologia",
    "preu": "des de 15€/p",
    "web": "https://www.elementsescaperoom.com"
  },
  {
    "id": "er-032",
    "nom": "Achijira",
    "localitzacio": "Carrer Alcalá de Guadaira, 20, 08020 Barcelona",
    "lat": 41.408,
    "lng": 2.202,
    "data": "",
    "dificultat": "",
    "decoracio": null,
    "gameMaster": null,
    "proves": null,
    "puntuacio": null,
    "comentaris": "",
    "participants": "",
    "tematica1": "Terror",
    "tematica2": "Misteri",
    "preu": "des de 17€/p",
    "web": "https://www.reddopamine.com"
  },
  {
    "id": "er-033",
    "nom": "After-Party",
    "localitzacio": "Passatge del Patriarca, 4-10D, 08002 Barcelona",
    "lat": 41.3859678,
    "lng": 2.173592,
    "data": "",
    "dificultat": "",
    "decoracio": null,
    "gameMaster": null,
    "proves": null,
    "puntuacio": null,
    "comentaris": "",
    "participants": "",
    "tematica1": "Comèdia",
    "tematica2": "Aventures",
    "preu": "des de 23€/p",
    "web": "https://lock-clock.com"
  },
  {
    "id": "er-034",
    "nom": "Alkatraz Classic",
    "localitzacio": "Carrer de Llull, 256, 08005 Barcelona",
    "lat": 41.4037675,
    "lng": 2.2059664,
    "data": "",
    "dificultat": "",
    "decoracio": null,
    "gameMaster": null,
    "proves": null,
    "puntuacio": null,
    "comentaris": "",
    "participants": "",
    "tematica1": "Crim",
    "tematica2": "Acció",
    "preu": "des de 22€/p",
    "web": "https://playescaperoom.es"
  },
  {
    "id": "er-035",
    "nom": "Alkatraz Medieval",
    "localitzacio": "Carrer de Llull, 256, 08005 Barcelona",
    "lat": 41.4037675,
    "lng": 2.2059664,
    "data": "",
    "dificultat": "",
    "decoracio": null,
    "gameMaster": null,
    "proves": null,
    "puntuacio": null,
    "comentaris": "",
    "participants": "",
    "tematica1": "Crim",
    "tematica2": "Història",
    "preu": "des de 22€/p",
    "web": "https://playescaperoom.es"
  },
  {
    "id": "er-036",
    "nom": "Biohazard",
    "localitzacio": "Carrer de la Indústria, 268, 08026 Barcelona",
    "lat": 41.4132834,
    "lng": 2.1793748,
    "data": "",
    "dificultat": "",
    "decoracio": null,
    "gameMaster": null,
    "proves": null,
    "puntuacio": null,
    "comentaris": "",
    "participants": "",
    "tematica1": "Terror",
    "tematica2": "Apocalipsis",
    "preu": "des de 20€/p",
    "web": "https://horrorbox.es"
  },
  {
    "id": "er-037",
    "nom": "Casanova: La Fuga de Barcelona",
    "localitzacio": "Carrer de Sant Antoni Maria Claret, 100, 08025 Barcelona",
    "lat": 41.406704,
    "lng": 2.1686956,
    "data": "",
    "dificultat": "",
    "decoracio": null,
    "gameMaster": null,
    "proves": null,
    "puntuacio": null,
    "comentaris": "",
    "participants": "",
    "tematica1": "Aventures",
    "tematica2": "Història",
    "preu": "des de 15€/p",
    "web": "https://therombocode.es/barcelona/"
  },
  {
    "id": "er-038",
    "nom": "Catalepsia",
    "localitzacio": "Carrer de la Indústria, 268, 08026 Barcelona",
    "lat": 41.4132834,
    "lng": 2.1793748,
    "data": "",
    "dificultat": "",
    "decoracio": null,
    "gameMaster": null,
    "proves": null,
    "puntuacio": null,
    "comentaris": "",
    "participants": "",
    "tematica1": "Terror",
    "tematica2": "Tensió",
    "preu": "20€/p",
    "web": "https://horrorbox.es"
  },
  {
    "id": "er-039",
    "nom": "Chernobyl 2.0",
    "localitzacio": "Carrer de los Castillejos, 287, 08025 Barcelona",
    "lat": 41.4074085,
    "lng": 2.1769632,
    "data": "",
    "dificultat": "",
    "decoracio": null,
    "gameMaster": null,
    "proves": null,
    "puntuacio": null,
    "comentaris": "",
    "participants": "",
    "tematica1": "Apocalipsis",
    "tematica2": "Ciència",
    "preu": "des de 18€/p",
    "web": "https://thehive.barcelona"
  },
  {
    "id": "er-040",
    "nom": "Crupier",
    "localitzacio": "Carrer Rioja, 22, 08521 Les Franqueses del Vallès, Barcelona",
    "lat": 41.6217787,
    "lng": 2.2985964,
    "data": "06/03/2026",
    "dificultat": "",
    "decoracio": 1,
    "gameMaster": 1,
    "proves": 1,
    "puntuacio": 1,
    "comentaris": "",
    "participants": "",
    "tematica1": "Crim",
    "tematica2": "Misteri",
    "preu": "des de 23€/p",
    "web": "https://quimeraescape.com"
  },
  {
    "id": "er-041",
    "nom": "Cybercity 2049",
    "localitzacio": "Carrer de Ponent, 18, 08922 Santa Coloma de Gramenet, Barcelona",
    "lat": 41.451,
    "lng": 2.2083,
    "data": "",
    "dificultat": "",
    "decoracio": null,
    "gameMaster": null,
    "proves": null,
    "puntuacio": null,
    "comentaris": "",
    "participants": "",
    "tematica1": "SciFi",
    "tematica2": "Tensió",
    "preu": "des de 17€/p",
    "web": "https://www.escapebarcelona.com"
  },
  {
    "id": "er-042",
    "nom": "Damn Fame!",
    "localitzacio": "Carrer de Trafalgar, 17, 08010 Barcelona",
    "lat": 41.3892038,
    "lng": 2.175234,
    "data": "",
    "dificultat": "",
    "decoracio": null,
    "gameMaster": null,
    "proves": null,
    "puntuacio": null,
    "comentaris": "",
    "participants": "",
    "tematica1": "Aventures",
    "tematica2": "Comèdia",
    "preu": "des de 27€/p",
    "web": "https://maximumescape.com"
  },
  {
    "id": "er-043",
    "nom": "El 11S",
    "localitzacio": "Carrer Travessera, 10, 08940 Cornellà de Llobregat, Barcelona",
    "lat": 41.3647761,
    "lng": 2.0773367,
    "data": "",
    "dificultat": "",
    "decoracio": null,
    "gameMaster": null,
    "proves": null,
    "puntuacio": null,
    "comentaris": "",
    "participants": "",
    "tematica1": "Tensió",
    "tematica2": "Acció",
    "preu": "des de 20€/p",
    "web": "https://openmindroomescape.es"
  },
  {
    "id": "er-044",
    "nom": "El Arca de Dalí",
    "localitzacio": "Carrer de Sant Antoni Maria Claret, 100, 08025 Barcelona",
    "lat": 41.406704,
    "lng": 2.1686956,
    "data": "",
    "dificultat": "",
    "decoracio": null,
    "gameMaster": null,
    "proves": null,
    "puntuacio": null,
    "comentaris": "",
    "participants": "",
    "tematica1": "Aventures",
    "tematica2": "Misteri",
    "preu": "des de 15€/p",
    "web": "https://therombocode.es/barcelona/"
  },
  {
    "id": "er-045",
    "nom": "El Bar",
    "localitzacio": "Carrer de Bonaventura Pollés, 21, 08014 Barcelona",
    "lat": 41.3715137,
    "lng": 2.1327697,
    "data": "",
    "dificultat": "",
    "decoracio": null,
    "gameMaster": null,
    "proves": null,
    "puntuacio": null,
    "comentaris": "",
    "participants": "",
    "tematica1": "Misteri",
    "tematica2": "",
    "preu": "des de 21€/p",
    "web": "https://unrealroomescape.es"
  },
  {
    "id": "er-046",
    "nom": "El Diario de Miko",
    "localitzacio": "Carrer Sant Antoni Maria Claret, 258, 08041 Barcelona",
    "lat": 41.5757399,
    "lng": 2.2276421,
    "data": "",
    "dificultat": "",
    "decoracio": null,
    "gameMaster": null,
    "proves": null,
    "puntuacio": null,
    "comentaris": "",
    "participants": "",
    "tematica1": "Terror",
    "tematica2": "Misteri",
    "preu": "des de 18€/p",
    "web": "https://www.xcaperoombcn.com"
  },
  {
    "id": "er-047",
    "nom": "El Final del Túnel",
    "localitzacio": "Carrer Antic de Bofarull, 15, 08026 Barcelona",
    "lat": 41.4109201,
    "lng": 2.1861986,
    "data": "",
    "dificultat": "",
    "decoracio": null,
    "gameMaster": null,
    "proves": null,
    "puntuacio": null,
    "comentaris": "",
    "participants": "",
    "tematica1": "Terror",
    "tematica2": "Tensió",
    "preu": "des de 13€/p",
    "web": "https://prison-experience.com"
  },
  {
    "id": "er-048",
    "nom": "El Laberinto del Tiempo",
    "localitzacio": "Passatge del Patriarca, 4-10D, 08002 Barcelona",
    "lat": 41.3859678,
    "lng": 2.173592,
    "data": "",
    "dificultat": "",
    "decoracio": null,
    "gameMaster": null,
    "proves": null,
    "puntuacio": null,
    "comentaris": "",
    "participants": "",
    "tematica1": "Aventures",
    "tematica2": "Història",
    "preu": "des de 19€/p",
    "web": "https://lock-clock.com"
  },
  {
    "id": "er-049",
    "nom": "El Misterio de Gaudí (Sala 1)",
    "localitzacio": "Carrer de Nàpols, 255, 08025 Barcelona",
    "lat": 41.4020438,
    "lng": 2.1704208,
    "data": "",
    "dificultat": "",
    "decoracio": null,
    "gameMaster": null,
    "proves": null,
    "puntuacio": null,
    "comentaris": "",
    "participants": "",
    "tematica1": "Misteri",
    "tematica2": "Història",
    "preu": "des de 23€/p",
    "web": "https://escapehunt.com/es/location/barcelona/"
  },
  {
    "id": "er-050",
    "nom": "El Misterio de la Mansión (Sala 1)",
    "localitzacio": "Avinguda Diagonal, 111, 08005 Barcelona",
    "lat": 41.407045,
    "lng": 2.2028529,
    "data": "",
    "dificultat": "",
    "decoracio": null,
    "gameMaster": null,
    "proves": null,
    "puntuacio": null,
    "comentaris": "",
    "participants": "",
    "tematica1": "Misteri",
    "tematica2": "Aventures",
    "preu": "des de 20€/p",
    "web": "https://mysteryescape.es"
  },
  {
    "id": "er-051",
    "nom": "El Misterio de la Mansión (Sala 2)",
    "localitzacio": "Avinguda Diagonal, 111, 08005 Barcelona",
    "lat": 41.407045,
    "lng": 2.2028529,
    "data": "",
    "dificultat": "",
    "decoracio": null,
    "gameMaster": null,
    "proves": null,
    "puntuacio": null,
    "comentaris": "",
    "participants": "",
    "tematica1": "Misteri",
    "tematica2": "Aventures",
    "preu": "des de 20€/p",
    "web": "https://mysteryescape.es"
  },
  {
    "id": "er-052",
    "nom": "El Projecte de la Bruixa",
    "localitzacio": "Passatge de Nogués, 8, 08025 Barcelona",
    "lat": 41.4075173,
    "lng": 2.1669176,
    "data": "",
    "dificultat": "",
    "decoracio": null,
    "gameMaster": null,
    "proves": null,
    "puntuacio": null,
    "comentaris": "",
    "participants": "",
    "tematica1": "Terror",
    "tematica2": "Misteri",
    "preu": "des de 18€/p",
    "web": "https://www.picaderomotel.com"
  },
  {
    "id": "er-053",
    "nom": "El Tesoro de Barcelona",
    "localitzacio": "Plaça Antoni Maura, 08003 Barcelona",
    "lat": 41.3852,
    "lng": 2.1785,
    "data": "",
    "dificultat": "",
    "decoracio": null,
    "gameMaster": null,
    "proves": null,
    "puntuacio": null,
    "comentaris": "",
    "participants": "",
    "tematica1": "Aventures",
    "tematica2": "Història",
    "preu": "",
    "web": "https://www.lostesorosdelahistoria.com"
  },
  {
    "id": "er-054",
    "nom": "El Virus",
    "localitzacio": "Carrer de les Acàcies, 38, 08027 Barcelona",
    "lat": 41.4252378,
    "lng": 2.1782435,
    "data": "",
    "dificultat": "",
    "decoracio": null,
    "gameMaster": null,
    "proves": null,
    "puntuacio": null,
    "comentaris": "",
    "participants": "",
    "tematica1": "Misteri",
    "tematica2": "Apocalipsis",
    "preu": "des de 20€/p",
    "web": "https://enigmalegacy.es/barcelona/"
  },
  {
    "id": "er-055",
    "nom": "Enigmik",
    "localitzacio": "Carrer del Rosselló, 508, 08026 Barcelona",
    "lat": 41.4098898,
    "lng": 2.1796826,
    "data": "",
    "dificultat": "",
    "decoracio": null,
    "gameMaster": null,
    "proves": null,
    "puntuacio": null,
    "comentaris": "",
    "participants": "",
    "tematica1": "Misteri",
    "tematica2": "Tensió",
    "preu": "des de 21€/p",
    "web": "https://www.enigmik.com"
  },
  {
    "id": "er-056",
    "nom": "Escapestory",
    "localitzacio": "Carrer de Sant Narcís, 61, 08030 Barcelona",
    "lat": 41.4320248,
    "lng": 2.192521,
    "data": "",
    "dificultat": "",
    "decoracio": null,
    "gameMaster": null,
    "proves": null,
    "puntuacio": null,
    "comentaris": "",
    "participants": "",
    "tematica1": "Terror",
    "tematica2": "Misteri",
    "preu": "des de 22€/p",
    "web": "https://fugitivosroomescape.com"
  },
  {
    "id": "er-057",
    "nom": "Escola de Lladres",
    "localitzacio": "Carrer de Nàpols, 255, 08025 Barcelona",
    "lat": 41.4020438,
    "lng": 2.1704208,
    "data": "",
    "dificultat": "",
    "decoracio": null,
    "gameMaster": null,
    "proves": null,
    "puntuacio": null,
    "comentaris": "",
    "participants": "",
    "tematica1": "Crim",
    "tematica2": "Acció",
    "preu": "des de 23€/p",
    "web": "https://escapehunt.com/es/location/barcelona/"
  },
  {
    "id": "er-058",
    "nom": "Espies de Gala: Missió Extrem",
    "localitzacio": "Carrer de Balmes, 107, 08008 Barcelona",
    "lat": 41.3917953,
    "lng": 2.1591641,
    "data": "",
    "dificultat": "",
    "decoracio": null,
    "gameMaster": null,
    "proves": null,
    "puntuacio": null,
    "comentaris": "",
    "participants": "",
    "tematica1": "Acció",
    "tematica2": "Aventures",
    "preu": "des de 18€/p",
    "web": "https://bcn.aventurico.com"
  },
  {
    "id": "er-059",
    "nom": "Galería de Cadáveres",
    "localitzacio": "Carrer Sant Antoni Maria Claret, 258, 08041 Barcelona",
    "lat": 41.5757399,
    "lng": 2.2276421,
    "data": "",
    "dificultat": "",
    "decoracio": null,
    "gameMaster": null,
    "proves": null,
    "puntuacio": null,
    "comentaris": "",
    "participants": "",
    "tematica1": "Crim",
    "tematica2": "Terror",
    "preu": "des de 18€/p",
    "web": "https://www.xcaperoombcn.com"
  },
  {
    "id": "er-060",
    "nom": "Gangsters: money, guns and whiskey",
    "localitzacio": "Carrer de Girona, 27, 08010 Barcelona",
    "lat": 41.3918879,
    "lng": 2.174838,
    "data": "",
    "dificultat": "",
    "decoracio": null,
    "gameMaster": null,
    "proves": null,
    "puntuacio": null,
    "comentaris": "",
    "participants": "",
    "tematica1": "Crim",
    "tematica2": "Acció",
    "preu": "des de 27€/p",
    "web": "https://maximumescape.com"
  },
  {
    "id": "er-061",
    "nom": "Jigsaw",
    "localitzacio": "Carrer de la Indústria, 268, 08026 Barcelona",
    "lat": 41.4132834,
    "lng": 2.1793748,
    "data": "",
    "dificultat": "",
    "decoracio": null,
    "gameMaster": null,
    "proves": null,
    "puntuacio": null,
    "comentaris": "",
    "participants": "",
    "tematica1": "Terror",
    "tematica2": "Tensió",
    "preu": "des de 20€/p",
    "web": "https://horrorbox.es"
  },
  {
    "id": "er-062",
    "nom": "Jumanji - The Adventure",
    "localitzacio": "Carrer de Balmes, 107, 08008 Barcelona",
    "lat": 41.3917953,
    "lng": 2.1591641,
    "data": "",
    "dificultat": "",
    "decoracio": null,
    "gameMaster": null,
    "proves": null,
    "puntuacio": null,
    "comentaris": "",
    "participants": "",
    "tematica1": "Aventures",
    "tematica2": "Fantasia",
    "preu": "des de 18€/p",
    "web": "https://bcn.aventurico.com"
  },
  {
    "id": "er-063",
    "nom": "Jurásico",
    "localitzacio": "Carrer de Badajoz, 49, 08005 Barcelona",
    "lat": 41.3967127,
    "lng": 2.1977703,
    "data": "",
    "dificultat": "",
    "decoracio": null,
    "gameMaster": null,
    "proves": null,
    "puntuacio": null,
    "comentaris": "",
    "participants": "",
    "tematica1": "Aventures",
    "tematica2": "SciFi",
    "preu": "40€/p",
    "web": "https://goldenpop.es"
  },
  {
    "id": "er-064",
    "nom": "K.O.N.G. Protocol",
    "localitzacio": "Carrer de Ponent, 18, 08922 Santa Coloma de Gramenet, Barcelona",
    "lat": 41.451,
    "lng": 2.2083,
    "data": "",
    "dificultat": "",
    "decoracio": null,
    "gameMaster": null,
    "proves": null,
    "puntuacio": null,
    "comentaris": "",
    "participants": "",
    "tematica1": "SciFi",
    "tematica2": "Acció",
    "preu": "des de 20€/p",
    "web": "https://www.escapebarcelona.com"
  },
  {
    "id": "er-065",
    "nom": "La Cámara Acorazada",
    "localitzacio": "Avinguda Diagonal, 111, 08005 Barcelona",
    "lat": 41.407045,
    "lng": 2.2028529,
    "data": "",
    "dificultat": "",
    "decoracio": null,
    "gameMaster": null,
    "proves": null,
    "puntuacio": null,
    "comentaris": "",
    "participants": "",
    "tematica1": "Crim",
    "tematica2": "Acció",
    "preu": "des de 20€/p",
    "web": "https://mysteryescape.es"
  },
  {
    "id": "er-066",
    "nom": "La Casa Paranormal",
    "localitzacio": "Carrer de los Castillejos, 287, 08025 Barcelona",
    "lat": 41.4074085,
    "lng": 2.1769632,
    "data": "",
    "dificultat": "",
    "decoracio": null,
    "gameMaster": null,
    "proves": null,
    "puntuacio": null,
    "comentaris": "",
    "participants": "",
    "tematica1": "Terror",
    "tematica2": "Misteri",
    "preu": "des de 18€/p",
    "web": "https://thehive.barcelona"
  },
  {
    "id": "er-067",
    "nom": "La Ducha Fría",
    "localitzacio": "Carrer Antic de Bofarull, 15, 08026 Barcelona",
    "lat": 41.4109201,
    "lng": 2.1861986,
    "data": "",
    "dificultat": "",
    "decoracio": null,
    "gameMaster": null,
    "proves": null,
    "puntuacio": null,
    "comentaris": "",
    "participants": "",
    "tematica1": "Terror",
    "tematica2": "Tensió",
    "preu": "des de 13€/p",
    "web": "https://prison-experience.com"
  },
  {
    "id": "er-068",
    "nom": "La Fortaleza",
    "localitzacio": "Passatge Posoltega, 11, 08030 Barcelona",
    "lat": 41.435,
    "lng": 2.195,
    "data": "",
    "dificultat": "",
    "decoracio": null,
    "gameMaster": null,
    "proves": null,
    "puntuacio": null,
    "comentaris": "",
    "participants": "",
    "tematica1": "Acció",
    "tematica2": "Tensió",
    "preu": "des de 22€/p",
    "web": "https://fugitivosroomescape.com"
  },
  {
    "id": "er-069",
    "nom": "La Fortaleza 2.0",
    "localitzacio": "Passatge Posoltega, 11, 08030 Barcelona",
    "lat": 41.435,
    "lng": 2.195,
    "data": "",
    "dificultat": "",
    "decoracio": null,
    "gameMaster": null,
    "proves": null,
    "puntuacio": null,
    "comentaris": "",
    "participants": "",
    "tematica1": "Acció",
    "tematica2": "SciFi",
    "preu": "des de 22€/p",
    "web": "https://fugitivosroomescape.com"
  },
  {
    "id": "er-070",
    "nom": "La Fortaleza Kids",
    "localitzacio": "Passatge Posoltega, 11, 08030 Barcelona",
    "lat": 41.435,
    "lng": 2.195,
    "data": "",
    "dificultat": "",
    "decoracio": null,
    "gameMaster": null,
    "proves": null,
    "puntuacio": null,
    "comentaris": "",
    "participants": "",
    "tematica1": "Infantil",
    "tematica2": "Acció",
    "preu": "des de 20€/p",
    "web": "https://fugitivosroomescape.com"
  },
  {
    "id": "er-071",
    "nom": "La Historia de Charlotte",
    "localitzacio": "Carrer de les Acàcies, 23, 08027 Barcelona",
    "lat": 41.4246172,
    "lng": 2.1780595,
    "data": "",
    "dificultat": "",
    "decoracio": null,
    "gameMaster": null,
    "proves": null,
    "puntuacio": null,
    "comentaris": "",
    "participants": "",
    "tematica1": "Terror",
    "tematica2": "Misteri",
    "preu": "des de 13€/p",
    "web": "https://roomwhitechapel.com"
  },
  {
    "id": "er-072",
    "nom": "La Nube",
    "localitzacio": "Carrer de la Legalitat, 93, 08024 Barcelona",
    "lat": 41.4091225,
    "lng": 2.1626835,
    "data": "",
    "dificultat": "",
    "decoracio": null,
    "gameMaster": null,
    "proves": null,
    "puntuacio": null,
    "comentaris": "",
    "participants": "",
    "tematica1": "Infantil",
    "tematica2": "Misteri",
    "preu": "des de 8€/p",
    "web": "https://www.emotionescape.com"
  },
  {
    "id": "er-073",
    "nom": "La Toma de Control",
    "localitzacio": "Carrer Antic de Bofarull, 15, 08026 Barcelona",
    "lat": 41.4109201,
    "lng": 2.1861986,
    "data": "",
    "dificultat": "",
    "decoracio": null,
    "gameMaster": null,
    "proves": null,
    "puntuacio": null,
    "comentaris": "",
    "participants": "",
    "tematica1": "Terror",
    "tematica2": "Tensió",
    "preu": "des de 13€/p",
    "web": "https://prison-experience.com"
  },
  {
    "id": "er-074",
    "nom": "La Última Función (Sala 1)",
    "localitzacio": "Carrer de Sant Antoni Maria Claret, 100, 08025 Barcelona",
    "lat": 41.406704,
    "lng": 2.1686956,
    "data": "",
    "dificultat": "",
    "decoracio": null,
    "gameMaster": null,
    "proves": null,
    "puntuacio": null,
    "comentaris": "",
    "participants": "",
    "tematica1": "Misteri",
    "tematica2": "Història",
    "preu": "des de 15€/p",
    "web": "https://therombocode.es/barcelona/"
  },
  {
    "id": "er-075",
    "nom": "La Última Función (Sala 2)",
    "localitzacio": "Carrer de Sant Antoni Maria Claret, 100, 08025 Barcelona",
    "lat": 41.406704,
    "lng": 2.1686956,
    "data": "",
    "dificultat": "",
    "decoracio": null,
    "gameMaster": null,
    "proves": null,
    "puntuacio": null,
    "comentaris": "",
    "participants": "",
    "tematica1": "Misteri",
    "tematica2": "Història",
    "preu": "des de 15€/p",
    "web": "https://therombocode.es/barcelona/"
  },
  {
    "id": "er-076",
    "nom": "La Vampira de Barcelona (Sala 1)",
    "localitzacio": "Carrer de Nàpols, 255, 08025 Barcelona",
    "lat": 41.4020438,
    "lng": 2.1704208,
    "data": "",
    "dificultat": "",
    "decoracio": null,
    "gameMaster": null,
    "proves": null,
    "puntuacio": null,
    "comentaris": "",
    "participants": "",
    "tematica1": "Terror",
    "tematica2": "Història",
    "preu": "des de 23€/p",
    "web": "https://escapehunt.com/es/location/barcelona/"
  },
  {
    "id": "er-077",
    "nom": "La Vampira de Barcelona (Sala 2)",
    "localitzacio": "Carrer de Nàpols, 255, 08025 Barcelona",
    "lat": 41.4020438,
    "lng": 2.1704208,
    "data": "",
    "dificultat": "",
    "decoracio": null,
    "gameMaster": null,
    "proves": null,
    "puntuacio": null,
    "comentaris": "",
    "participants": "",
    "tematica1": "Terror",
    "tematica2": "Història",
    "preu": "des de 23€/p",
    "web": "https://escapehunt.com/es/location/barcelona/"
  },
  {
    "id": "er-078",
    "nom": "Misió Gaudí",
    "localitzacio": "Passatge del Patriarca, 4-10D, 08002 Barcelona",
    "lat": 41.3859678,
    "lng": 2.173592,
    "data": "",
    "dificultat": "",
    "decoracio": null,
    "gameMaster": null,
    "proves": null,
    "puntuacio": null,
    "comentaris": "",
    "participants": "",
    "tematica1": "Aventures",
    "tematica2": "Història",
    "preu": "des de 21€/p",
    "web": "https://lock-clock.com"
  },
  {
    "id": "er-079",
    "nom": "Misión S.W.A.T.",
    "localitzacio": "Avinguda del Parc de Can Mercader, 5, 08940 Cornellà de Llobregat, Barcelona",
    "lat": 41.353,
    "lng": 2.083,
    "data": "",
    "dificultat": "",
    "decoracio": null,
    "gameMaster": null,
    "proves": null,
    "puntuacio": null,
    "comentaris": "",
    "participants": "",
    "tematica1": "Acció",
    "tematica2": "Tensió",
    "preu": "des de 20€/p",
    "web": "https://openmindroomescape.es"
  },
  {
    "id": "er-080",
    "nom": "Ouija",
    "localitzacio": "Carrer de la Indústria, 268, 08026 Barcelona",
    "lat": 41.4132834,
    "lng": 2.1793748,
    "data": "",
    "dificultat": "",
    "decoracio": null,
    "gameMaster": null,
    "proves": null,
    "puntuacio": null,
    "comentaris": "",
    "participants": "",
    "tematica1": "Terror",
    "tematica2": "Misteri",
    "preu": "des de 20€/p",
    "web": "https://horrorbox.es"
  },
  {
    "id": "er-081",
    "nom": "Picadero Motel",
    "localitzacio": "Passatge de Nogués, 8, 08025 Barcelona",
    "lat": 41.4075173,
    "lng": 2.1669176,
    "data": "",
    "dificultat": "",
    "decoracio": null,
    "gameMaster": null,
    "proves": null,
    "puntuacio": null,
    "comentaris": "",
    "participants": "",
    "tematica1": "Terror",
    "tematica2": "Misteri",
    "preu": "des de 18€/p",
    "web": "https://www.picaderomotel.com"
  },
  {
    "id": "er-082",
    "nom": "Poison",
    "localitzacio": "Carrer de la Cooperativa, 4, 08302 Mataró, Barcelona",
    "lat": 41.5336534,
    "lng": 2.4426066,
    "data": "",
    "dificultat": "",
    "decoracio": null,
    "gameMaster": null,
    "proves": null,
    "puntuacio": null,
    "comentaris": "",
    "participants": "",
    "tematica1": "Terror",
    "tematica2": "Misteri",
    "preu": "des de 14€/p",
    "web": "https://www.kadabraescape.com"
  },
  {
    "id": "er-083",
    "nom": "Prisoners of Alkaban",
    "localitzacio": "Carrer de Trafalgar, 17, 08010 Barcelona",
    "lat": 41.3892038,
    "lng": 2.175234,
    "data": "",
    "dificultat": "",
    "decoracio": null,
    "gameMaster": null,
    "proves": null,
    "puntuacio": null,
    "comentaris": "",
    "participants": "",
    "tematica1": "Aventures",
    "tematica2": "Fantasia",
    "preu": "des de 27€/p",
    "web": "https://maximumescape.com"
  },
  {
    "id": "er-084",
    "nom": "Profana",
    "localitzacio": "Carrer de Sors, 29, 08012 Barcelona",
    "lat": 41.409335,
    "lng": 2.1582022,
    "data": "",
    "dificultat": "★★★★",
    "decoracio": 5,
    "gameMaster": 5,
    "proves": 4.5,
    "puntuacio": 4.8,
    "comentaris": "",
    "participants": "Laura Marc Xamo Sergi",
    "tematica1": "Terror",
    "tematica2": "Misteri",
    "preu": "des de 18€/p",
    "web": "https://psicopatasanonimos.com"
  },
  {
    "id": "er-085",
    "nom": "Servei Secret",
    "localitzacio": "Carrer de l'Arc de Sant Silvestre, 3, 08003 Barcelona",
    "lat": 41.3852047,
    "lng": 2.1785128,
    "data": "",
    "dificultat": "",
    "decoracio": null,
    "gameMaster": null,
    "proves": null,
    "puntuacio": null,
    "comentaris": "",
    "participants": "",
    "tematica1": "Acció",
    "tematica2": "Misteri",
    "preu": "des de 21€/p",
    "web": "https://lock-clock.com"
  },
  {
    "id": "er-086",
    "nom": "Sherlock Holmes vs London Devil",
    "localitzacio": "Carrer de Trafalgar, 17, 08010 Barcelona",
    "lat": 41.3892038,
    "lng": 2.175234,
    "data": "",
    "dificultat": "",
    "decoracio": null,
    "gameMaster": null,
    "proves": null,
    "puntuacio": null,
    "comentaris": "",
    "participants": "",
    "tematica1": "Misteri",
    "tematica2": "Tensió",
    "preu": "des de 27€/p",
    "web": "https://maximumescape.com"
  },
  {
    "id": "er-087",
    "nom": "Sustos S.A.",
    "localitzacio": "Carrer Rioja, 22, 08521 Les Franqueses del Vallès, Barcelona",
    "lat": 41.6217787,
    "lng": 2.2985964,
    "data": "",
    "dificultat": "",
    "decoracio": null,
    "gameMaster": null,
    "proves": null,
    "puntuacio": null,
    "comentaris": "",
    "participants": "",
    "tematica1": "Terror",
    "tematica2": "Comèdia",
    "preu": "des de 25€/p",
    "web": "https://quimeraescape.com"
  },
  {
    "id": "er-088",
    "nom": "The Dungeon: One last round",
    "localitzacio": "Carrer de Girona, 27, 08010 Barcelona",
    "lat": 41.3918879,
    "lng": 2.174838,
    "data": "",
    "dificultat": "",
    "decoracio": null,
    "gameMaster": null,
    "proves": null,
    "puntuacio": null,
    "comentaris": "",
    "participants": "",
    "tematica1": "Misteri",
    "tematica2": "Història",
    "preu": "des de 27€/p",
    "web": "https://maximumescape.com"
  },
  {
    "id": "er-089",
    "nom": "The Narcos",
    "localitzacio": "Carrer de Bonaventura Pollés, 21, 08014 Barcelona",
    "lat": 41.3715137,
    "lng": 2.1327697,
    "data": "",
    "dificultat": "",
    "decoracio": null,
    "gameMaster": null,
    "proves": null,
    "puntuacio": null,
    "comentaris": "",
    "participants": "",
    "tematica1": "Crim",
    "tematica2": "Acció",
    "preu": "des de 21€/p",
    "web": "https://unrealroomescape.es"
  },
  {
    "id": "er-090",
    "nom": "The Z Lab",
    "localitzacio": "Carrer de los Castillejos, 287, 08025 Barcelona",
    "lat": 41.4074085,
    "lng": 2.1769632,
    "data": "",
    "dificultat": "",
    "decoracio": null,
    "gameMaster": null,
    "proves": null,
    "puntuacio": null,
    "comentaris": "",
    "participants": "",
    "tematica1": "Apocalipsis",
    "tematica2": "Terror",
    "preu": "des de 18€/p",
    "web": "https://thehive.barcelona"
  },
  {
    "id": "er-091",
    "nom": "Tras el Espejo",
    "localitzacio": "Carrer de Sant Antoni Maria Claret, 100, 08025 Barcelona",
    "lat": 41.406704,
    "lng": 2.1686956,
    "data": "",
    "dificultat": "",
    "decoracio": null,
    "gameMaster": null,
    "proves": null,
    "puntuacio": null,
    "comentaris": "",
    "participants": "",
    "tematica1": "Misteri",
    "tematica2": "Tensió",
    "preu": "des de 15€/p",
    "web": "https://therombocode.es/barcelona/"
  },
  {
    "id": "er-092",
    "nom": "Ulysses Spaceship",
    "localitzacio": "Carrer de Trafalgar, 17, 08010 Barcelona",
    "lat": 41.3892038,
    "lng": 2.175234,
    "data": "",
    "dificultat": "",
    "decoracio": null,
    "gameMaster": null,
    "proves": null,
    "puntuacio": null,
    "comentaris": "",
    "participants": "",
    "tematica1": "SciFi",
    "tematica2": "Acció",
    "preu": "des de 27€/p",
    "web": "https://maximumescape.com"
  },
  {
    "id": "er-093",
    "nom": "Vault 27",
    "localitzacio": "Carrer de Girona, 27, 08010 Barcelona",
    "lat": 41.3918879,
    "lng": 2.174838,
    "data": "",
    "dificultat": "",
    "decoracio": null,
    "gameMaster": null,
    "proves": null,
    "puntuacio": null,
    "comentaris": "",
    "participants": "",
    "tematica1": "Apocalipsis",
    "tematica2": "Tensió",
    "preu": "des de 30€/p",
    "web": "https://maximumescape.com"
  }
]